{
	"place": [
	  {
		"id": "mapbox1",
		"lat": -6.1784849,
		"lng": 106.8328933,
		"title": "National Gallery of Indonesia",
		"lead": "Museum in an 1817 building featuring permanent & rotating exhibits by local & international artists.",
		"img": "https://source.unsplash.com/g55bG1O5Lf0/500x333"
	  },
	  {
		"id": "mapbox2",
		"lat": -6.175393,
		"lng": 106.8271521,
		"title": "National Monument",
		"lead": "Well-known obelisk built to commemorate Indonesian independence from the Netherlands.",
		"img": "https://source.unsplash.com/_oeQmY1zcBE/500x333"
	  },
	  {
		"id": "mapbox3",
		"lat": -6.1813156,
		"lng": 106.8269281,
		"title": "National Library",
		"lead": "",
		"img": "https://source.unsplash.com/PloOjgDNFig/500x333"
	  },
	  {
		"id": "mapbox4",
		"lat": -6.1702,
		"lng": 106.8314,
		"title": "Istiqlal Mosque",
		"lead": "This mosque features a contemporary design & is the largest in Southeast Asia.",
		"img": "https://source.unsplash.com/3qPQtPoyqUg/500x333"
	  },
	  {
		"id": "mapbox5",
		"lat": -6.169225,
		"lng": 106.8330637,
		"title": "Jakarta Cathedral",
		"lead": "Restored Neo-Gothic-style Roman Catholic place of worship, founded in 1901 with 3 spires & 3 altars.",
		"img": "https://source.unsplash.com/tlEcSKHQ998/500x333"
	  },
	  {
		"id": "mapbox6",
		"lat": -6.1764023,
		"lng": 106.8215892,
		"title": "National Museum",
		"lead": "",
		"img": "https://source.unsplash.com/3hxlxmo2Oc0/500x333"
	  },
	  {
		"id": "mapbox7",
		"lat": -6.1772682,
		"lng": 106.8306049,
		"title": "Gambir Railway Station",
		"lead": "",
		"img": "https://source.unsplash.com/fwr64V5drow/500x333"
	  }
	]
  }